[
  {
    "name": "Toronto",
    "state": "CA-ON",
    "lat": 43.7417,
    "lng": -79.3733,
    "pop": 5429524,
    "density": 4334.4,
    "tz": "America/Toronto",
    "slug": "toronto"
  },
  {
    "name": "Montréal",
    "state": "CA-QC",
    "lat": 45.5089,
    "lng": -73.5617,
    "pop": 3519595,
    "density": 3889,
    "tz": "America/Montreal",
    "slug": "montreal"
  },
  {
    "name": "Vancouver",
    "state": "CA-BC",
    "lat": 49.25,
    "lng": -123.1,
    "pop": 2264823,
    "density": 5492.6,
    "tz": "America/Vancouver",
    "slug": "vancouver"
  },
  {
    "name": "Calgary",
    "state": "CA-AB",
    "lat": 51.05,
    "lng": -114.0667,
    "pop": 1239220,
    "density": 1501.1,
    "tz": "America/Edmonton",
    "slug": "calgary"
  },
  {
    "name": "Edmonton",
    "state": "CA-AB",
    "lat": 53.5344,
    "lng": -113.4903,
    "pop": 1062643,
    "density": 1360.9,
    "tz": "America/Edmonton",
    "slug": "edmonton"
  },
  {
    "name": "Ottawa",
    "state": "CA-ON",
    "lat": 45.4247,
    "lng": -75.695,
    "pop": 989567,
    "density": 334,
    "tz": "America/Montreal",
    "slug": "ottawa"
  },
  {
    "name": "Mississauga",
    "state": "CA-ON",
    "lat": 43.6,
    "lng": -79.65,
    "pop": 721599,
    "density": 2467.6,
    "tz": "America/Toronto",
    "slug": "mississauga"
  },
  {
    "name": "Winnipeg",
    "state": "CA-MB",
    "lat": 49.8844,
    "lng": -97.1464,
    "pop": 705244,
    "density": 1430,
    "tz": "America/Winnipeg",
    "slug": "winnipeg"
  },
  {
    "name": "Quebec City",
    "state": "CA-QC",
    "lat": 46.8139,
    "lng": -71.2081,
    "pop": 705103,
    "density": 1173.2,
    "tz": "America/Montreal",
    "slug": "quebec-city"
  },
  {
    "name": "Hamilton",
    "state": "CA-ON",
    "lat": 43.2567,
    "lng": -79.8692,
    "pop": 693645,
    "density": 480.6,
    "tz": "America/Toronto",
    "slug": "hamilton"
  },
  {
    "name": "Brampton",
    "state": "CA-ON",
    "lat": 43.6833,
    "lng": -79.7667,
    "pop": 593638,
    "density": 2228.7,
    "tz": "America/Toronto",
    "slug": "brampton"
  },
  {
    "name": "Surrey",
    "state": "CA-BC",
    "lat": 49.19,
    "lng": -122.8489,
    "pop": 517887,
    "density": 1636.8,
    "tz": "America/Vancouver",
    "slug": "surrey"
  },
  {
    "name": "Kitchener",
    "state": "CA-ON",
    "lat": 43.4186,
    "lng": -80.4728,
    "pop": 470015,
    "density": 3433.5,
    "tz": "America/Toronto",
    "slug": "kitchener"
  },
  {
    "name": "Laval",
    "state": "CA-QC",
    "lat": 45.5833,
    "lng": -73.75,
    "pop": 422993,
    "density": 1710.9,
    "tz": "America/Montreal",
    "slug": "laval"
  },
  {
    "name": "Halifax",
    "state": "CA-NS",
    "lat": 44.6475,
    "lng": -63.5906,
    "pop": 403131,
    "density": 73.4,
    "tz": "America/Halifax",
    "slug": "halifax"
  },
  {
    "name": "London",
    "state": "CA-ON",
    "lat": 42.9836,
    "lng": -81.2497,
    "pop": 383822,
    "density": 913.1,
    "tz": "America/Toronto",
    "slug": "london"
  },
  {
    "name": "Victoria",
    "state": "CA-BC",
    "lat": 48.4283,
    "lng": -123.3647,
    "pop": 335696,
    "density": 4406.3,
    "tz": "America/Vancouver",
    "slug": "victoria"
  },
  {
    "name": "Markham",
    "state": "CA-ON",
    "lat": 43.8767,
    "lng": -79.2633,
    "pop": 328966,
    "density": 1549.2,
    "tz": "America/Toronto",
    "slug": "markham"
  },
  {
    "name": "St. Catharines",
    "state": "CA-ON",
    "lat": 43.1833,
    "lng": -79.2333,
    "pop": 309319,
    "density": 1384.8,
    "tz": "America/Toronto",
    "slug": "st-catharines"
  },
  {
    "name": "Niagara Falls",
    "state": "CA-ON",
    "lat": 43.06,
    "lng": -79.1067,
    "pop": 308596,
    "density": 419.9,
    "tz": "America/Toronto",
    "slug": "niagara-falls"
  },
  {
    "name": "Vaughan",
    "state": "CA-ON",
    "lat": 43.8333,
    "lng": -79.5,
    "pop": 306233,
    "density": 1119.4,
    "tz": "America/Toronto",
    "slug": "vaughan"
  },
  {
    "name": "Gatineau",
    "state": "CA-QC",
    "lat": 45.4833,
    "lng": -75.65,
    "pop": 276245,
    "density": 773.7,
    "tz": "America/Montreal",
    "slug": "gatineau"
  },
  {
    "name": "Windsor",
    "state": "CA-ON",
    "lat": 42.2833,
    "lng": -83,
    "pop": 276165,
    "density": 1484.3,
    "tz": "America/Toronto",
    "slug": "windsor"
  },
  {
    "name": "Saskatoon",
    "state": "CA-SK",
    "lat": 52.1333,
    "lng": -106.6833,
    "pop": 246376,
    "density": 1080,
    "tz": "America/Regina",
    "slug": "saskatoon"
  },
  {
    "name": "Longueuil",
    "state": "CA-QC",
    "lat": 45.5333,
    "lng": -73.5167,
    "pop": 239700,
    "density": 2002,
    "tz": "America/Montreal",
    "slug": "longueuil"
  },
  {
    "name": "Burnaby",
    "state": "CA-BC",
    "lat": 49.2667,
    "lng": -122.9667,
    "pop": 232755,
    "density": 2568.7,
    "tz": "America/Vancouver",
    "slug": "burnaby"
  },
  {
    "name": "Regina",
    "state": "CA-SK",
    "lat": 50.4547,
    "lng": -104.6067,
    "pop": 215106,
    "density": 1195.2,
    "tz": "America/Regina",
    "slug": "regina"
  },
  {
    "name": "Richmond",
    "state": "CA-BC",
    "lat": 49.1667,
    "lng": -123.1333,
    "pop": 198309,
    "density": 1534.1,
    "tz": "America/Vancouver",
    "slug": "richmond"
  },
  {
    "name": "Richmond Hill",
    "state": "CA-ON",
    "lat": 43.8667,
    "lng": -79.4333,
    "pop": 195022,
    "density": 1928.8,
    "tz": "America/Toronto",
    "slug": "richmond-hill"
  },
  {
    "name": "Oakville",
    "state": "CA-ON",
    "lat": 43.45,
    "lng": -79.6833,
    "pop": 193832,
    "density": 1314.2,
    "tz": "America/Toronto",
    "slug": "oakville"
  },
  {
    "name": "Burlington",
    "state": "CA-ON",
    "lat": 43.3167,
    "lng": -79.8,
    "pop": 183314,
    "density": 946.8,
    "tz": "America/Toronto",
    "slug": "burlington"
  },
  {
    "name": "Barrie",
    "state": "CA-ON",
    "lat": 44.3711,
    "lng": -79.6769,
    "pop": 172657,
    "density": 1428,
    "tz": "America/Toronto",
    "slug": "barrie"
  },
  {
    "name": "Oshawa",
    "state": "CA-ON",
    "lat": 43.9,
    "lng": -78.85,
    "pop": 166000,
    "density": 1027,
    "tz": "America/Toronto",
    "slug": "oshawa"
  },
  {
    "name": "Sherbrooke",
    "state": "CA-QC",
    "lat": 45.4,
    "lng": -71.9,
    "pop": 161323,
    "density": 456,
    "tz": "America/Montreal",
    "slug": "sherbrooke"
  },
  {
    "name": "Saguenay",
    "state": "CA-QC",
    "lat": 48.4167,
    "lng": -71.0667,
    "pop": 144746,
    "density": 128.5,
    "tz": "America/Montreal",
    "slug": "saguenay"
  },
  {
    "name": "Lévis",
    "state": "CA-QC",
    "lat": 46.8,
    "lng": -71.1833,
    "pop": 143414,
    "density": 319.4,
    "tz": "America/Montreal",
    "slug": "levis"
  },
  {
    "name": "Kelowna",
    "state": "CA-BC",
    "lat": 49.8881,
    "lng": -119.4956,
    "pop": 142146,
    "density": 601.3,
    "tz": "America/Vancouver",
    "slug": "kelowna"
  },
  {
    "name": "Abbotsford",
    "state": "CA-BC",
    "lat": 49.05,
    "lng": -122.3167,
    "pop": 141397,
    "density": 376.5,
    "tz": "America/Vancouver",
    "slug": "abbotsford"
  },
  {
    "name": "Coquitlam",
    "state": "CA-BC",
    "lat": 49.2839,
    "lng": -122.7919,
    "pop": 139284,
    "density": 1138.9,
    "tz": "America/Vancouver",
    "slug": "coquitlam"
  },
  {
    "name": "Trois-Rivières",
    "state": "CA-QC",
    "lat": 46.35,
    "lng": -72.55,
    "pop": 134413,
    "density": 1581.2,
    "tz": "America/Montreal",
    "slug": "troisrivieres"
  },
  {
    "name": "Guelph",
    "state": "CA-ON",
    "lat": 43.55,
    "lng": -80.25,
    "pop": 131794,
    "density": 1511.1,
    "tz": "America/Toronto",
    "slug": "guelph"
  },
  {
    "name": "Cambridge",
    "state": "CA-ON",
    "lat": 43.3972,
    "lng": -80.3114,
    "pop": 129920,
    "density": 1149.6,
    "tz": "America/Toronto",
    "slug": "cambridge"
  },
  {
    "name": "Whitby",
    "state": "CA-ON",
    "lat": 43.8833,
    "lng": -78.9417,
    "pop": 128377,
    "density": 876.1,
    "tz": "America/Toronto",
    "slug": "whitby"
  },
  {
    "name": "Ajax",
    "state": "CA-ON",
    "lat": 43.8583,
    "lng": -79.0364,
    "pop": 119677,
    "density": 1634.2,
    "tz": "America/Toronto",
    "slug": "ajax"
  },
  {
    "name": "Langley",
    "state": "CA-BC",
    "lat": 49.1044,
    "lng": -122.5827,
    "pop": 117285,
    "density": 380.8,
    "tz": "America/Vancouver",
    "slug": "langley"
  },
  {
    "name": "Saanich",
    "state": "CA-BC",
    "lat": 48.484,
    "lng": -123.381,
    "pop": 114148,
    "density": 1099.9,
    "tz": "America/Vancouver",
    "slug": "saanich"
  },
  {
    "name": "Terrebonne",
    "state": "CA-QC",
    "lat": 45.7,
    "lng": -73.6333,
    "pop": 111575,
    "density": 687.1,
    "tz": "America/Montreal",
    "slug": "terrebonne"
  },
  {
    "name": "Milton",
    "state": "CA-ON",
    "lat": 43.5083,
    "lng": -79.8833,
    "pop": 110128,
    "density": 230.11,
    "tz": "America/Toronto",
    "slug": "milton"
  },
  {
    "name": "St. John's",
    "state": "CA-NL",
    "lat": 47.4817,
    "lng": -52.7971,
    "pop": 108860,
    "density": 244.1,
    "tz": "America/St_Johns",
    "slug": "st-johns"
  },
  {
    "name": "Moncton",
    "state": "CA-NB",
    "lat": 46.1328,
    "lng": -64.7714,
    "pop": 108620,
    "density": 506,
    "tz": "America/Moncton",
    "slug": "moncton"
  },
  {
    "name": "Thunder Bay",
    "state": "CA-ON",
    "lat": 48.3822,
    "lng": -89.2461,
    "pop": 107909,
    "density": 330.1,
    "tz": "America/Thunder_Bay",
    "slug": "thunder-bay"
  },
  {
    "name": "Dieppe",
    "state": "CA-NB",
    "lat": 46.0989,
    "lng": -64.7242,
    "pop": 107068,
    "density": 469.6,
    "tz": "America/Moncton",
    "slug": "dieppe"
  },
  {
    "name": "Waterloo",
    "state": "CA-ON",
    "lat": 43.4667,
    "lng": -80.5167,
    "pop": 104986,
    "density": 1520.7,
    "tz": "America/Toronto",
    "slug": "waterloo"
  },
  {
    "name": "Delta",
    "state": "CA-BC",
    "lat": 49.0847,
    "lng": -123.0586,
    "pop": 102238,
    "density": 567.4,
    "tz": "America/Vancouver",
    "slug": "delta"
  },
  {
    "name": "Chatham",
    "state": "CA-ON",
    "lat": 42.4229,
    "lng": -82.1324,
    "pop": 101647,
    "density": 41.4,
    "tz": "America/Toronto",
    "slug": "chatham"
  },
  {
    "name": "Red Deer",
    "state": "CA-AB",
    "lat": 52.2681,
    "lng": -113.8111,
    "pop": 100418,
    "density": 958.8,
    "tz": "America/Edmonton",
    "slug": "red-deer"
  },
  {
    "name": "Kamloops",
    "state": "CA-BC",
    "lat": 50.6761,
    "lng": -120.3408,
    "pop": 100046,
    "density": 301.7,
    "tz": "America/Vancouver",
    "slug": "kamloops"
  },
  {
    "name": "Brantford",
    "state": "CA-ON",
    "lat": 43.1667,
    "lng": -80.25,
    "pop": 97496,
    "density": 1345.9,
    "tz": "America/Toronto",
    "slug": "brantford"
  },
  {
    "name": "Cape Breton",
    "state": "CA-NS",
    "lat": 46.1389,
    "lng": -60.1931,
    "pop": 94285,
    "density": 38.8,
    "tz": "America/Glace_Bay",
    "slug": "cape-breton"
  },
  {
    "name": "Lethbridge",
    "state": "CA-AB",
    "lat": 49.6942,
    "lng": -112.8328,
    "pop": 92729,
    "density": 759.5,
    "tz": "America/Edmonton",
    "slug": "lethbridge"
  },
  {
    "name": "Saint-Jean-sur-Richelieu",
    "state": "CA-QC",
    "lat": 45.3167,
    "lng": -73.2667,
    "pop": 92394,
    "density": 419.7,
    "tz": "America/Montreal",
    "slug": "saintjeansurrichelieu"
  },
  {
    "name": "Clarington",
    "state": "CA-ON",
    "lat": 43.935,
    "lng": -78.6083,
    "pop": 92013,
    "density": 138.3,
    "tz": "America/Toronto",
    "slug": "clarington"
  },
  {
    "name": "Pickering",
    "state": "CA-ON",
    "lat": 43.8354,
    "lng": -79.089,
    "pop": 91771,
    "density": 383.1,
    "tz": "America/Toronto",
    "slug": "pickering"
  },
  {
    "name": "Nanaimo",
    "state": "CA-BC",
    "lat": 49.1642,
    "lng": -123.9364,
    "pop": 90504,
    "density": 918,
    "tz": "America/Vancouver",
    "slug": "nanaimo"
  },
  {
    "name": "Sudbury",
    "state": "CA-ON",
    "lat": 46.49,
    "lng": -81.01,
    "pop": 88054,
    "density": 49.7,
    "tz": "America/Toronto",
    "slug": "sudbury"
  },
  {
    "name": "North Vancouver",
    "state": "CA-BC",
    "lat": 49.3641,
    "lng": -123.0066,
    "pop": 85935,
    "density": 534.6,
    "tz": "America/Vancouver",
    "slug": "north-vancouver"
  },
  {
    "name": "Brossard",
    "state": "CA-QC",
    "lat": 45.4667,
    "lng": -73.45,
    "pop": 85721,
    "density": 1896,
    "tz": "America/Montreal",
    "slug": "brossard"
  },
  {
    "name": "Repentigny",
    "state": "CA-QC",
    "lat": 45.7333,
    "lng": -73.4667,
    "pop": 84965,
    "density": 1395.4,
    "tz": "America/Montreal",
    "slug": "repentigny"
  },
  {
    "name": "Newmarket",
    "state": "CA-ON",
    "lat": 44.05,
    "lng": -79.4667,
    "pop": 84224,
    "density": 2190.5,
    "tz": "America/Toronto",
    "slug": "newmarket"
  },
  {
    "name": "Chilliwack",
    "state": "CA-BC",
    "lat": 49.1577,
    "lng": -121.9509,
    "pop": 83788,
    "density": 320.2,
    "tz": "America/Vancouver",
    "slug": "chilliwack"
  },
  {
    "name": "White Rock",
    "state": "CA-BC",
    "lat": 49.025,
    "lng": -122.8028,
    "pop": 82368,
    "density": 3893.1,
    "tz": "America/Vancouver",
    "slug": "white-rock"
  },
  {
    "name": "Maple Ridge",
    "state": "CA-BC",
    "lat": 49.2167,
    "lng": -122.6,
    "pop": 82256,
    "density": 308.3,
    "tz": "America/Vancouver",
    "slug": "maple-ridge"
  },
  {
    "name": "Peterborough",
    "state": "CA-ON",
    "lat": 44.3,
    "lng": -78.3167,
    "pop": 82094,
    "density": 1261.2,
    "tz": "America/Toronto",
    "slug": "peterborough"
  },
  {
    "name": "Kawartha Lakes",
    "state": "CA-ON",
    "lat": 44.35,
    "lng": -78.75,
    "pop": 75423,
    "density": 24.5,
    "tz": "America/Toronto",
    "slug": "kawartha-lakes"
  },
  {
    "name": "Prince George",
    "state": "CA-BC",
    "lat": 53.9169,
    "lng": -122.7494,
    "pop": 74003,
    "density": 232.5,
    "tz": "America/Vancouver",
    "slug": "prince-george"
  },
  {
    "name": "Sault Ste. Marie",
    "state": "CA-ON",
    "lat": 46.5333,
    "lng": -84.35,
    "pop": 73368,
    "density": 328.6,
    "tz": "America/Toronto",
    "slug": "sault-ste-marie"
  },
  {
    "name": "Sarnia",
    "state": "CA-ON",
    "lat": 42.9994,
    "lng": -82.3089,
    "pop": 71594,
    "density": 434.3,
    "tz": "America/Toronto",
    "slug": "sarnia"
  },
  {
    "name": "Wood Buffalo",
    "state": "CA-AB",
    "lat": 57.6042,
    "lng": -111.3284,
    "pop": 71589,
    "density": 1.2,
    "tz": "America/Edmonton",
    "slug": "wood-buffalo"
  },
  {
    "name": "New Westminster",
    "state": "CA-BC",
    "lat": 49.2069,
    "lng": -122.9111,
    "pop": 70996,
    "density": 4543.4,
    "tz": "America/Vancouver",
    "slug": "new-westminster"
  },
  {
    "name": "Châteauguay",
    "state": "CA-QC",
    "lat": 45.38,
    "lng": -73.75,
    "pop": 70812,
    "density": 1278.9,
    "tz": "America/Montreal",
    "slug": "chateauguay"
  },
  {
    "name": "Saint-Jérôme",
    "state": "CA-QC",
    "lat": 45.7833,
    "lng": -74,
    "pop": 69598,
    "density": 756.3,
    "tz": "America/Montreal",
    "slug": "saintjerome"
  },
  {
    "name": "Drummondville",
    "state": "CA-QC",
    "lat": 45.8833,
    "lng": -72.4833,
    "pop": 68601,
    "density": 1315.4,
    "tz": "America/Montreal",
    "slug": "drummondville"
  },
  {
    "name": "Saint John",
    "state": "CA-NB",
    "lat": 45.2806,
    "lng": -66.0761,
    "pop": 67575,
    "density": 213.8,
    "tz": "America/Moncton",
    "slug": "saint-john"
  },
  {
    "name": "Caledon",
    "state": "CA-ON",
    "lat": 43.8667,
    "lng": -79.8667,
    "pop": 66502,
    "density": 96.6,
    "tz": "America/Toronto",
    "slug": "caledon"
  },
  {
    "name": "St. Albert",
    "state": "CA-AB",
    "lat": 53.6303,
    "lng": -113.6258,
    "pop": 65589,
    "density": 1353.9,
    "tz": "America/Edmonton",
    "slug": "st-albert"
  },
  {
    "name": "Granby",
    "state": "CA-QC",
    "lat": 45.4,
    "lng": -72.7333,
    "pop": 63433,
    "density": 415.3,
    "tz": "America/Montreal",
    "slug": "granby"
  },
  {
    "name": "Medicine Hat",
    "state": "CA-AB",
    "lat": 50.0417,
    "lng": -110.6775,
    "pop": 63260,
    "density": 564.6,
    "tz": "America/Edmonton",
    "slug": "medicine-hat"
  },
  {
    "name": "Grande Prairie",
    "state": "CA-AB",
    "lat": 55.1708,
    "lng": -118.7947,
    "pop": 63166,
    "density": 475.9,
    "tz": "America/Edmonton",
    "slug": "grande-prairie"
  },
  {
    "name": "St. Thomas",
    "state": "CA-ON",
    "lat": 42.775,
    "lng": -81.1833,
    "pop": 61707,
    "density": 1067.3,
    "tz": "America/Toronto",
    "slug": "st-thomas"
  },
  {
    "name": "Airdrie",
    "state": "CA-AB",
    "lat": 51.2917,
    "lng": -114.0144,
    "pop": 61581,
    "density": 728.2,
    "tz": "America/Edmonton",
    "slug": "airdrie"
  },
  {
    "name": "Halton Hills",
    "state": "CA-ON",
    "lat": 43.63,
    "lng": -79.95,
    "pop": 61161,
    "density": 221.4,
    "tz": "America/Toronto",
    "slug": "halton-hills"
  },
  {
    "name": "Saint-Hyacinthe",
    "state": "CA-QC",
    "lat": 45.6167,
    "lng": -72.95,
    "pop": 59614,
    "density": 294.5,
    "tz": "America/Montreal",
    "slug": "sainthyacinthe"
  },
  {
    "name": "Lac-Brome",
    "state": "CA-QC",
    "lat": 45.2167,
    "lng": -72.5167,
    "pop": 58889,
    "density": 27.3,
    "tz": "America/Montreal",
    "slug": "lacbrome"
  },
  {
    "name": "Port Coquitlam",
    "state": "CA-BC",
    "lat": 49.2625,
    "lng": -122.7811,
    "pop": 58612,
    "density": 2009.4,
    "tz": "America/Vancouver",
    "slug": "port-coquitlam"
  },
  {
    "name": "Fredericton",
    "state": "CA-NB",
    "lat": 45.9636,
    "lng": -66.6431,
    "pop": 58220,
    "density": 439.2,
    "tz": "America/Moncton",
    "slug": "fredericton"
  },
  {
    "name": "Blainville",
    "state": "CA-QC",
    "lat": 45.67,
    "lng": -73.88,
    "pop": 56363,
    "density": 1030.9,
    "tz": "America/Montreal",
    "slug": "blainville"
  },
  {
    "name": "Aurora",
    "state": "CA-ON",
    "lat": 44,
    "lng": -79.4667,
    "pop": 55445,
    "density": 1112.3,
    "tz": "America/Toronto",
    "slug": "aurora"
  },
  {
    "name": "Welland",
    "state": "CA-ON",
    "lat": 42.9833,
    "lng": -79.2333,
    "pop": 52293,
    "density": 645.3,
    "tz": "America/Toronto",
    "slug": "welland"
  },
  {
    "name": "North Bay",
    "state": "CA-ON",
    "lat": 46.3,
    "lng": -79.45,
    "pop": 51553,
    "density": 161.6,
    "tz": "America/Toronto",
    "slug": "north-bay"
  },
  {
    "name": "Beloeil",
    "state": "CA-QC",
    "lat": 45.5667,
    "lng": -73.2,
    "pop": 50796,
    "density": 862.8,
    "tz": "America/Montreal",
    "slug": "beloeil"
  },
  {
    "name": "Belleville",
    "state": "CA-ON",
    "lat": 44.1667,
    "lng": -77.3833,
    "pop": 50716,
    "density": 205.1,
    "tz": "America/Toronto",
    "slug": "belleville"
  },
  {
    "name": "Mirabel",
    "state": "CA-QC",
    "lat": 45.65,
    "lng": -74.0833,
    "pop": 50513,
    "density": 104.1,
    "tz": "America/Montreal",
    "slug": "mirabel"
  },
  {
    "name": "Shawinigan",
    "state": "CA-QC",
    "lat": 46.5667,
    "lng": -72.75,
    "pop": 50060,
    "density": 68.2,
    "tz": "America/Montreal",
    "slug": "shawinigan"
  },
  {
    "name": "Dollard-des-Ormeaux",
    "state": "CA-QC",
    "lat": 45.4833,
    "lng": -73.8167,
    "pop": 49637,
    "density": 3286.7,
    "tz": "America/Montreal",
    "slug": "dollarddesormeaux"
  },
  {
    "name": "Brandon",
    "state": "CA-MB",
    "lat": 49.8483,
    "lng": -99.95,
    "pop": 48859,
    "density": 599.1,
    "tz": "America/Winnipeg",
    "slug": "brandon"
  },
  {
    "name": "Rimouski",
    "state": "CA-QC",
    "lat": 48.45,
    "lng": -68.53,
    "pop": 48664,
    "density": 143.3,
    "tz": "America/Montreal",
    "slug": "rimouski"
  },
  {
    "name": "Cornwall",
    "state": "CA-ON",
    "lat": 45.0275,
    "lng": -74.74,
    "pop": 46589,
    "density": 756.8,
    "tz": "America/Toronto",
    "slug": "cornwall"
  },
  {
    "name": "Stouffville",
    "state": "CA-ON",
    "lat": 43.9667,
    "lng": -79.25,
    "pop": 45837,
    "density": 222.3,
    "tz": "America/Toronto",
    "slug": "stouffville"
  },
  {
    "name": "Georgina",
    "state": "CA-ON",
    "lat": 44.3,
    "lng": -79.4333,
    "pop": 45418,
    "density": 157.8,
    "tz": "America/Toronto",
    "slug": "georgina"
  },
  {
    "name": "Victoriaville",
    "state": "CA-QC",
    "lat": 46.05,
    "lng": -71.9667,
    "pop": 45309,
    "density": 516.2,
    "tz": "America/Montreal",
    "slug": "victoriaville"
  },
  {
    "name": "Vernon",
    "state": "CA-BC",
    "lat": 50.267,
    "lng": -119.272,
    "pop": 44600,
    "density": 417.7,
    "tz": "America/Vancouver",
    "slug": "vernon"
  },
  {
    "name": "Duncan",
    "state": "CA-BC",
    "lat": 48.7787,
    "lng": -123.7079,
    "pop": 44451,
    "density": 2387.1,
    "tz": "America/Vancouver",
    "slug": "duncan"
  },
  {
    "name": "Saint-Eustache",
    "state": "CA-QC",
    "lat": 45.57,
    "lng": -73.9,
    "pop": 44154,
    "density": 634.3,
    "tz": "America/Montreal",
    "slug": "sainteustache"
  },
  {
    "name": "Quinte West",
    "state": "CA-ON",
    "lat": 44.1833,
    "lng": -77.5667,
    "pop": 43577,
    "density": 88.2,
    "tz": "America/Toronto",
    "slug": "quinte-west"
  },
  {
    "name": "Charlottetown",
    "state": "CA-PE",
    "lat": 46.2403,
    "lng": -63.1347,
    "pop": 42602,
    "density": 779.7,
    "tz": "America/Halifax",
    "slug": "charlottetown"
  },
  {
    "name": "Mascouche",
    "state": "CA-QC",
    "lat": 45.75,
    "lng": -73.6,
    "pop": 42491,
    "density": 398.4,
    "tz": "America/Montreal",
    "slug": "mascouche"
  },
  {
    "name": "West Vancouver",
    "state": "CA-BC",
    "lat": 49.3667,
    "lng": -123.1667,
    "pop": 42473,
    "density": 486.8,
    "tz": "America/Vancouver",
    "slug": "west-vancouver"
  },
  {
    "name": "Salaberry-de-Valleyfield",
    "state": "CA-QC",
    "lat": 45.25,
    "lng": -74.13,
    "pop": 42410,
    "density": 395.5,
    "tz": "America/Montreal",
    "slug": "salaberrydevalleyfield"
  },
  {
    "name": "Rouyn-Noranda",
    "state": "CA-QC",
    "lat": 48.2333,
    "lng": -79.0167,
    "pop": 42334,
    "density": 7,
    "tz": "America/Montreal",
    "slug": "rouynnoranda"
  },
  {
    "name": "Timmins",
    "state": "CA-ON",
    "lat": 48.4667,
    "lng": -81.3333,
    "pop": 41788,
    "density": 14,
    "tz": "America/Toronto",
    "slug": "timmins"
  },
  {
    "name": "Sorel-Tracy",
    "state": "CA-QC",
    "lat": 46.0333,
    "lng": -73.1167,
    "pop": 41629,
    "density": 241.1,
    "tz": "America/Montreal",
    "slug": "soreltracy"
  },
  {
    "name": "New Tecumseth",
    "state": "CA-ON",
    "lat": 44.0833,
    "lng": -79.75,
    "pop": 41439,
    "density": 151.1,
    "tz": "America/Toronto",
    "slug": "new-tecumseth"
  },
  {
    "name": "Woodstock",
    "state": "CA-ON",
    "lat": 43.1306,
    "lng": -80.7467,
    "pop": 40902,
    "density": 835.3,
    "tz": "America/Toronto",
    "slug": "woodstock"
  },
  {
    "name": "Boucherville",
    "state": "CA-QC",
    "lat": 45.6,
    "lng": -73.45,
    "pop": 40753,
    "density": 575.5,
    "tz": "America/Montreal",
    "slug": "boucherville"
  },
  {
    "name": "Mission",
    "state": "CA-BC",
    "lat": 49.1337,
    "lng": -122.3112,
    "pop": 38833,
    "density": 170.6,
    "tz": "America/Vancouver",
    "slug": "mission"
  },
  {
    "name": "Vaudreuil-Dorion",
    "state": "CA-QC",
    "lat": 45.4,
    "lng": -74.0333,
    "pop": 38117,
    "density": 524.1,
    "tz": "America/Montreal",
    "slug": "vaudreuildorion"
  },
  {
    "name": "Brant",
    "state": "CA-ON",
    "lat": 43.1167,
    "lng": -80.3667,
    "pop": 36707,
    "density": 43.5,
    "tz": "America/Toronto",
    "slug": "brant"
  },
  {
    "name": "Lakeshore",
    "state": "CA-ON",
    "lat": 42.2399,
    "lng": -82.6511,
    "pop": 36611,
    "density": 69,
    "tz": "America/Toronto",
    "slug": "lakeshore"
  },
  {
    "name": "Innisfil",
    "state": "CA-ON",
    "lat": 44.3,
    "lng": -79.5833,
    "pop": 36566,
    "density": 139.2,
    "tz": "America/Toronto",
    "slug": "innisfil"
  },
  {
    "name": "Prince Albert",
    "state": "CA-SK",
    "lat": 53.2,
    "lng": -105.75,
    "pop": 35926,
    "density": 534.4,
    "tz": "America/Regina",
    "slug": "prince-albert"
  },
  {
    "name": "Langford Station",
    "state": "CA-BC",
    "lat": 48.4506,
    "lng": -123.5058,
    "pop": 35342,
    "density": 885,
    "tz": "America/Vancouver",
    "slug": "langford-station"
  },
  {
    "name": "Bradford West Gwillimbury",
    "state": "CA-ON",
    "lat": 44.1333,
    "lng": -79.6333,
    "pop": 35325,
    "density": 175.7,
    "tz": "America/Toronto",
    "slug": "bradford-west-gwillimbury"
  },
  {
    "name": "Campbell River",
    "state": "CA-BC",
    "lat": 50.0244,
    "lng": -125.2475,
    "pop": 35138,
    "density": 1143.9,
    "tz": "America/Vancouver",
    "slug": "campbell-river"
  },
  {
    "name": "Spruce Grove",
    "state": "CA-AB",
    "lat": 53.545,
    "lng": -113.9008,
    "pop": 34066,
    "density": 1057.9,
    "tz": "America/Edmonton",
    "slug": "spruce-grove"
  },
  {
    "name": "Moose Jaw",
    "state": "CA-SK",
    "lat": 50.3933,
    "lng": -105.5519,
    "pop": 33890,
    "density": 710.7,
    "tz": "America/Regina",
    "slug": "moose-jaw"
  },
  {
    "name": "Penticton",
    "state": "CA-BC",
    "lat": 49.4911,
    "lng": -119.5886,
    "pop": 33761,
    "density": 801.8,
    "tz": "America/Vancouver",
    "slug": "penticton"
  },
  {
    "name": "Port Moody",
    "state": "CA-BC",
    "lat": 49.2831,
    "lng": -122.8317,
    "pop": 33551,
    "density": 1295.9,
    "tz": "America/Vancouver",
    "slug": "port-moody"
  },
  {
    "name": "Leamington",
    "state": "CA-ON",
    "lat": 42.0667,
    "lng": -82.5833,
    "pop": 32991,
    "density": 105.3,
    "tz": "America/Toronto",
    "slug": "leamington"
  },
  {
    "name": "East Kelowna",
    "state": "CA-BC",
    "lat": 49.8625,
    "lng": -119.5833,
    "pop": 32655,
    "density": 264.4,
    "tz": "America/Vancouver",
    "slug": "east-kelowna"
  },
  {
    "name": "Côte-Saint-Luc",
    "state": "CA-QC",
    "lat": 45.4687,
    "lng": -73.6673,
    "pop": 32448,
    "density": 4662.5,
    "tz": "America/Montreal",
    "slug": "cotesaintluc"
  },
  {
    "name": "Val-d’Or",
    "state": "CA-QC",
    "lat": 48.1,
    "lng": -77.7833,
    "pop": 31862,
    "density": 9,
    "tz": "America/Montreal",
    "slug": "valdor"
  },
  {
    "name": "Owen Sound",
    "state": "CA-ON",
    "lat": 44.5667,
    "lng": -80.9333,
    "pop": 31820,
    "density": 1311.1,
    "tz": "America/Toronto",
    "slug": "owen-sound"
  },
  {
    "name": "Stratford",
    "state": "CA-ON",
    "lat": 43.3708,
    "lng": -80.9819,
    "pop": 31465,
    "density": 1167.5,
    "tz": "America/Toronto",
    "slug": "stratford"
  },
  {
    "name": "Lloydminster",
    "state": "CA-SK",
    "lat": 53.2783,
    "lng": -110.005,
    "pop": 31410,
    "density": 742.2,
    "tz": "America/Edmonton",
    "slug": "lloydminster"
  },
  {
    "name": "Pointe-Claire",
    "state": "CA-QC",
    "lat": 45.45,
    "lng": -73.8167,
    "pop": 31380,
    "density": 1662,
    "tz": "America/Montreal",
    "slug": "pointeclaire"
  },
  {
    "name": "Orillia",
    "state": "CA-ON",
    "lat": 44.6,
    "lng": -79.4167,
    "pop": 31166,
    "density": 1090.3,
    "tz": "America/Toronto",
    "slug": "orillia"
  },
  {
    "name": "Alma",
    "state": "CA-QC",
    "lat": 48.55,
    "lng": -71.65,
    "pop": 30904,
    "density": 158,
    "tz": "America/Montreal",
    "slug": "alma"
  },
  {
    "name": "Orangeville",
    "state": "CA-ON",
    "lat": 43.9167,
    "lng": -80.1167,
    "pop": 30734,
    "density": 69.3,
    "tz": "America/Toronto",
    "slug": "orangeville"
  },
  {
    "name": "Fort Erie",
    "state": "CA-ON",
    "lat": 42.9167,
    "lng": -79.0167,
    "pop": 30710,
    "density": 184.7,
    "tz": "America/Toronto",
    "slug": "fort-erie"
  },
  {
    "name": "LaSalle",
    "state": "CA-ON",
    "lat": 42.2167,
    "lng": -83.0667,
    "pop": 30180,
    "density": 461.8,
    "tz": "America/Toronto",
    "slug": "lasalle"
  },
  {
    "name": "Sainte-Julie",
    "state": "CA-QC",
    "lat": 45.5833,
    "lng": -73.3333,
    "pop": 30104,
    "density": 607.8,
    "tz": "America/Montreal",
    "slug": "saintejulie"
  },
  {
    "name": "Leduc",
    "state": "CA-AB",
    "lat": 53.2594,
    "lng": -113.5492,
    "pop": 29993,
    "density": 706.7,
    "tz": "America/Edmonton",
    "slug": "leduc"
  },
  {
    "name": "North Cowichan",
    "state": "CA-BC",
    "lat": 48.8236,
    "lng": -123.7192,
    "pop": 29676,
    "density": 147.3,
    "tz": "America/Vancouver",
    "slug": "north-cowichan"
  },
  {
    "name": "Chambly",
    "state": "CA-QC",
    "lat": 45.4311,
    "lng": -73.2873,
    "pop": 29120,
    "density": 1158.7,
    "tz": "America/Montreal",
    "slug": "chambly"
  },
  {
    "name": "Okotoks",
    "state": "CA-AB",
    "lat": 50.725,
    "lng": -113.975,
    "pop": 28881,
    "density": 1471,
    "tz": "America/Edmonton",
    "slug": "okotoks"
  },
  {
    "name": "Sept-Îles",
    "state": "CA-QC",
    "lat": 50.2167,
    "lng": -66.3833,
    "pop": 28534,
    "density": 16.1,
    "tz": "America/Montreal",
    "slug": "septiles"
  },
  {
    "name": "Centre Wellington",
    "state": "CA-ON",
    "lat": 43.7,
    "lng": -80.3667,
    "pop": 28191,
    "density": 69.2,
    "tz": "America/Toronto",
    "slug": "centre-wellington"
  },
  {
    "name": "Saint-Constant",
    "state": "CA-QC",
    "lat": 45.37,
    "lng": -73.57,
    "pop": 27359,
    "density": 478.9,
    "tz": "America/Montreal",
    "slug": "saintconstant"
  },
  {
    "name": "Grimsby",
    "state": "CA-ON",
    "lat": 43.2,
    "lng": -79.55,
    "pop": 27314,
    "density": 396.3,
    "tz": "America/Toronto",
    "slug": "grimsby"
  },
  {
    "name": "Boisbriand",
    "state": "CA-QC",
    "lat": 45.62,
    "lng": -73.83,
    "pop": 26884,
    "density": 966.5,
    "tz": "America/Montreal",
    "slug": "boisbriand"
  },
  {
    "name": "Conception Bay South",
    "state": "CA-NL",
    "lat": 47.5167,
    "lng": -52.9833,
    "pop": 26199,
    "density": 443.3,
    "tz": "America/St_Johns",
    "slug": "conception-bay-south"
  },
  {
    "name": "Saint-Bruno-de-Montarville",
    "state": "CA-QC",
    "lat": 45.5333,
    "lng": -73.35,
    "pop": 26107,
    "density": 603.3,
    "tz": "America/Montreal",
    "slug": "saintbrunodemontarville"
  },
  {
    "name": "Sainte-Thérèse",
    "state": "CA-QC",
    "lat": 45.6333,
    "lng": -73.85,
    "pop": 26025,
    "density": 2716.1,
    "tz": "America/Montreal",
    "slug": "saintetherese"
  },
  {
    "name": "Cochrane",
    "state": "CA-AB",
    "lat": 51.189,
    "lng": -114.467,
    "pop": 25853,
    "density": 866.7,
    "tz": "America/Edmonton",
    "slug": "cochrane"
  },
  {
    "name": "Thetford Mines",
    "state": "CA-QC",
    "lat": 46.1,
    "lng": -71.3,
    "pop": 25709,
    "density": 113.3,
    "tz": "America/Montreal",
    "slug": "thetford-mines"
  },
  {
    "name": "Courtenay",
    "state": "CA-BC",
    "lat": 49.6878,
    "lng": -124.9944,
    "pop": 25599,
    "density": 789.9,
    "tz": "America/Vancouver",
    "slug": "courtenay"
  },
  {
    "name": "Magog",
    "state": "CA-QC",
    "lat": 45.2667,
    "lng": -72.15,
    "pop": 25358,
    "density": 175.9,
    "tz": "America/Montreal",
    "slug": "magog"
  },
  {
    "name": "Whitehorse",
    "state": "CA-YT",
    "lat": 60.7029,
    "lng": -135.0691,
    "pop": 25085,
    "density": 60.2,
    "tz": "America/Whitehorse",
    "slug": "whitehorse"
  },
  {
    "name": "Woolwich",
    "state": "CA-ON",
    "lat": 43.5667,
    "lng": -80.4833,
    "pop": 25006,
    "density": 76.7,
    "tz": "America/Toronto",
    "slug": "woolwich"
  },
  {
    "name": "Clarence-Rockland",
    "state": "CA-ON",
    "lat": 45.4833,
    "lng": -75.2,
    "pop": 24512,
    "density": 82.3,
    "tz": "America/Toronto",
    "slug": "clarencerockland"
  },
  {
    "name": "Fort Saskatchewan",
    "state": "CA-AB",
    "lat": 53.7128,
    "lng": -113.2133,
    "pop": 24149,
    "density": 501.3,
    "tz": "America/Edmonton",
    "slug": "fort-saskatchewan"
  },
  {
    "name": "East Gwillimbury",
    "state": "CA-ON",
    "lat": 44.1333,
    "lng": -79.4167,
    "pop": 23991,
    "density": 97.9,
    "tz": "America/Toronto",
    "slug": "east-gwillimbury"
  },
  {
    "name": "Lincoln",
    "state": "CA-ON",
    "lat": 43.13,
    "lng": -79.43,
    "pop": 23787,
    "density": 146.1,
    "tz": "America/Toronto",
    "slug": "lincoln"
  },
  {
    "name": "La Prairie",
    "state": "CA-QC",
    "lat": 45.42,
    "lng": -73.5,
    "pop": 23357,
    "density": 539.7,
    "tz": "America/Montreal",
    "slug": "la-prairie"
  },
  {
    "name": "Tecumseh",
    "state": "CA-ON",
    "lat": 42.2431,
    "lng": -82.9256,
    "pop": 23229,
    "density": 245.4,
    "tz": "America/Toronto",
    "slug": "tecumseh"
  },
  {
    "name": "Mount Pearl Park",
    "state": "CA-NL",
    "lat": 47.5189,
    "lng": -52.8058,
    "pop": 22957,
    "density": 1456.8,
    "tz": "America/St_Johns",
    "slug": "mount-pearl-park"
  },
  {
    "name": "Amherstburg",
    "state": "CA-ON",
    "lat": 42.1,
    "lng": -83.0833,
    "pop": 21936,
    "density": 118.2,
    "tz": "America/Toronto",
    "slug": "amherstburg"
  },
  {
    "name": "Saint-Lambert",
    "state": "CA-QC",
    "lat": 45.5,
    "lng": -73.5167,
    "pop": 21861,
    "density": 2880.6,
    "tz": "America/Montreal",
    "slug": "saintlambert"
  },
  {
    "name": "Brockville",
    "state": "CA-ON",
    "lat": 44.5833,
    "lng": -75.6833,
    "pop": 21854,
    "density": 1167.8,
    "tz": "America/Toronto",
    "slug": "brockville"
  },
  {
    "name": "Collingwood",
    "state": "CA-ON",
    "lat": 44.5,
    "lng": -80.2167,
    "pop": 21793,
    "density": 645.1,
    "tz": "America/Toronto",
    "slug": "collingwood"
  },
  {
    "name": "Scugog",
    "state": "CA-ON",
    "lat": 44.09,
    "lng": -78.936,
    "pop": 21617,
    "density": 45.4,
    "tz": "America/Toronto",
    "slug": "scugog"
  },
  {
    "name": "Kingsville",
    "state": "CA-ON",
    "lat": 42.1,
    "lng": -82.7167,
    "pop": 21552,
    "density": 87.3,
    "tz": "America/Toronto",
    "slug": "kingsville"
  },
  {
    "name": "Baie-Comeau",
    "state": "CA-QC",
    "lat": 49.2167,
    "lng": -68.15,
    "pop": 21536,
    "density": 64,
    "tz": "America/Montreal",
    "slug": "baiecomeau"
  },
  {
    "name": "Paradise",
    "state": "CA-NL",
    "lat": 47.5333,
    "lng": -52.8667,
    "pop": 21389,
    "density": 731.5,
    "tz": "America/St_Johns",
    "slug": "paradise"
  },
  {
    "name": "Uxbridge",
    "state": "CA-ON",
    "lat": 44.1167,
    "lng": -79.1333,
    "pop": 21176,
    "density": 45.6,
    "tz": "America/Toronto",
    "slug": "uxbridge"
  },
  {
    "name": "Essa",
    "state": "CA-ON",
    "lat": 44.25,
    "lng": -79.7833,
    "pop": 21083,
    "density": 75.3,
    "tz": "America/Toronto",
    "slug": "essa"
  },
  {
    "name": "Candiac",
    "state": "CA-QC",
    "lat": 45.38,
    "lng": -73.52,
    "pop": 21047,
    "density": 1215.8,
    "tz": "America/Montreal",
    "slug": "candiac"
  },
  {
    "name": "Oro-Medonte",
    "state": "CA-ON",
    "lat": 44.5667,
    "lng": -79.5833,
    "pop": 21036,
    "density": 35.8,
    "tz": "America/Toronto",
    "slug": "oromedonte"
  },
  {
    "name": "Varennes",
    "state": "CA-QC",
    "lat": 45.6833,
    "lng": -73.4333,
    "pop": 20994,
    "density": 226.9,
    "tz": "America/Montreal",
    "slug": "varennes"
  },
  {
    "name": "Strathroy-Caradoc",
    "state": "CA-ON",
    "lat": 42.9575,
    "lng": -81.6167,
    "pop": 20867,
    "density": 77.1,
    "tz": "America/Toronto",
    "slug": "strathroycaradoc"
  },
  {
    "name": "Wasaga Beach",
    "state": "CA-ON",
    "lat": 44.5206,
    "lng": -80.0167,
    "pop": 20675,
    "density": 352.6,
    "tz": "America/Toronto",
    "slug": "wasaga-beach"
  },
  {
    "name": "New Glasgow",
    "state": "CA-NS",
    "lat": 45.5926,
    "lng": -62.6455,
    "pop": 20609,
    "density": 911.6,
    "tz": "America/Halifax",
    "slug": "new-glasgow"
  },
  {
    "name": "Wilmot",
    "state": "CA-ON",
    "lat": 43.4,
    "lng": -80.65,
    "pop": 20545,
    "density": 77.9,
    "tz": "America/Toronto",
    "slug": "wilmot"
  },
  {
    "name": "Essex",
    "state": "CA-ON",
    "lat": 42.0833,
    "lng": -82.9,
    "pop": 20427,
    "density": 73.5,
    "tz": "America/Toronto",
    "slug": "essex"
  },
  {
    "name": "Fort St. John",
    "state": "CA-BC",
    "lat": 56.2465,
    "lng": -120.8476,
    "pop": 20155,
    "density": 820.2,
    "tz": "America/Dawson_Creek",
    "slug": "fort-st-john"
  },
  {
    "name": "Kirkland",
    "state": "CA-QC",
    "lat": 45.45,
    "lng": -73.8667,
    "pop": 20151,
    "density": 2204.4,
    "tz": "America/Montreal",
    "slug": "kirkland"
  },
  {
    "name": "L’Assomption",
    "state": "CA-QC",
    "lat": 45.8333,
    "lng": -73.4167,
    "pop": 20065,
    "density": 202.9,
    "tz": "America/Montreal",
    "slug": "lassomption"
  },
  {
    "name": "Westmount",
    "state": "CA-QC",
    "lat": 45.4833,
    "lng": -73.6,
    "pop": 19931,
    "density": 4952.8,
    "tz": "America/Montreal",
    "slug": "westmount"
  },
  {
    "name": "Saint-Lazare",
    "state": "CA-QC",
    "lat": 45.4,
    "lng": -74.1333,
    "pop": 19889,
    "density": 289.6,
    "tz": "America/Montreal",
    "slug": "saintlazare"
  },
  {
    "name": "Chestermere",
    "state": "CA-AB",
    "lat": 51.05,
    "lng": -113.8225,
    "pop": 19887,
    "density": 603.8,
    "tz": "America/Edmonton",
    "slug": "chestermere"
  },
  {
    "name": "Huntsville",
    "state": "CA-ON",
    "lat": 45.3333,
    "lng": -79.2167,
    "pop": 19816,
    "density": 27.9,
    "tz": "America/Toronto",
    "slug": "huntsville"
  },
  {
    "name": "Corner Brook",
    "state": "CA-NL",
    "lat": 48.9287,
    "lng": -57.926,
    "pop": 19806,
    "density": 133.6,
    "tz": "America/St_Johns",
    "slug": "corner-brook"
  },
  {
    "name": "Riverview",
    "state": "CA-NB",
    "lat": 46.0613,
    "lng": -64.8052,
    "pop": 19667,
    "density": 554.8,
    "tz": "America/Moncton",
    "slug": "riverview"
  },
  {
    "name": "Lloydminster",
    "state": "CA-AB",
    "lat": 53.2807,
    "lng": -110.035,
    "pop": 19645,
    "density": 817.3,
    "tz": "America/Edmonton",
    "slug": "lloydminster"
  },
  {
    "name": "Joliette",
    "state": "CA-QC",
    "lat": 46.0167,
    "lng": -73.45,
    "pop": 19621,
    "density": 860.3,
    "tz": "America/Montreal",
    "slug": "joliette"
  },
  {
    "name": "Yellowknife",
    "state": "CA-NT",
    "lat": 62.4709,
    "lng": -114.4053,
    "pop": 19569,
    "density": 185.5,
    "tz": "America/Yellowknife",
    "slug": "yellowknife"
  },
  {
    "name": "Squamish",
    "state": "CA-BC",
    "lat": 49.7017,
    "lng": -123.1589,
    "pop": 19512,
    "density": 186.1,
    "tz": "America/Vancouver",
    "slug": "squamish"
  },
  {
    "name": "Mont-Royal",
    "state": "CA-QC",
    "lat": 45.5161,
    "lng": -73.6431,
    "pop": 19503,
    "density": 2545.3,
    "tz": "America/Montreal",
    "slug": "montroyal"
  },
  {
    "name": "Rivière-du-Loup",
    "state": "CA-QC",
    "lat": 47.8333,
    "lng": -69.5333,
    "pop": 19447,
    "density": 230.9,
    "tz": "America/Montreal",
    "slug": "riviereduloup"
  },
  {
    "name": "Cobourg",
    "state": "CA-ON",
    "lat": 43.9667,
    "lng": -78.1667,
    "pop": 19440,
    "density": 869.3,
    "tz": "America/Toronto",
    "slug": "cobourg"
  },
  {
    "name": "Cranbrook",
    "state": "CA-BC",
    "lat": 49.5097,
    "lng": -115.7667,
    "pop": 19259,
    "density": 604.7,
    "tz": "America/Edmonton",
    "slug": "cranbrook"
  },
  {
    "name": "Beaconsfield",
    "state": "CA-QC",
    "lat": 45.4333,
    "lng": -73.8667,
    "pop": 19115,
    "density": 1752.6,
    "tz": "America/Montreal",
    "slug": "beaconsfield"
  },
  {
    "name": "Springwater",
    "state": "CA-ON",
    "lat": 44.4333,
    "lng": -79.7333,
    "pop": 19059,
    "density": 35.5,
    "tz": "America/Toronto",
    "slug": "springwater"
  },
  {
    "name": "Dorval",
    "state": "CA-QC",
    "lat": 45.45,
    "lng": -73.75,
    "pop": 18980,
    "density": 839.2,
    "tz": "America/Montreal",
    "slug": "dorval"
  },
  {
    "name": "Thorold",
    "state": "CA-ON",
    "lat": 43.1167,
    "lng": -79.2,
    "pop": 18801,
    "density": 226.5,
    "tz": "America/Toronto",
    "slug": "thorold"
  },
  {
    "name": "Camrose",
    "state": "CA-AB",
    "lat": 53.0167,
    "lng": -112.8333,
    "pop": 18742,
    "density": 439.8,
    "tz": "America/Edmonton",
    "slug": "camrose"
  },
  {
    "name": "South Frontenac",
    "state": "CA-ON",
    "lat": 44.5081,
    "lng": -76.4939,
    "pop": 18646,
    "density": 19.2,
    "tz": "America/Toronto",
    "slug": "south-frontenac"
  },
  {
    "name": "Pitt Meadows",
    "state": "CA-BC",
    "lat": 49.2333,
    "lng": -122.6833,
    "pop": 18573,
    "density": 214.7,
    "tz": "America/Vancouver",
    "slug": "pitt-meadows"
  },
  {
    "name": "Port Colborne",
    "state": "CA-ON",
    "lat": 42.8833,
    "lng": -79.25,
    "pop": 18306,
    "density": 150.1,
    "tz": "America/Toronto",
    "slug": "port-colborne"
  },
  {
    "name": "Quispamsis",
    "state": "CA-NB",
    "lat": 45.4322,
    "lng": -65.9462,
    "pop": 18245,
    "density": 318.9,
    "tz": "America/Moncton",
    "slug": "quispamsis"
  },
  {
    "name": "Mont-Saint-Hilaire",
    "state": "CA-QC",
    "lat": 45.5622,
    "lng": -73.1917,
    "pop": 18200,
    "density": 410.9,
    "tz": "America/Montreal",
    "slug": "montsainthilaire"
  },
  {
    "name": "Bathurst",
    "state": "CA-NB",
    "lat": 47.62,
    "lng": -65.65,
    "pop": 18154,
    "density": 129.3,
    "tz": "America/Moncton",
    "slug": "bathurst"
  },
  {
    "name": "Saint-Augustin-de-Desmaures",
    "state": "CA-QC",
    "lat": 46.7333,
    "lng": -71.4667,
    "pop": 18141,
    "density": 211.5,
    "tz": "America/Montreal",
    "slug": "saintaugustindedesmaures"
  },
  {
    "name": "Oak Bay",
    "state": "CA-BC",
    "lat": 48.4264,
    "lng": -123.3228,
    "pop": 18094,
    "density": 1717.7,
    "tz": "America/Vancouver",
    "slug": "oak-bay"
  },
  {
    "name": "Sainte-Marthe-sur-le-Lac",
    "state": "CA-QC",
    "lat": 45.53,
    "lng": -73.93,
    "pop": 18074,
    "density": 2066.7,
    "tz": "America/Montreal",
    "slug": "saintemarthesurlelac"
  },
  {
    "name": "Salmon Arm",
    "state": "CA-BC",
    "lat": 50.7022,
    "lng": -119.2722,
    "pop": 17706,
    "density": 144,
    "tz": "America/Vancouver",
    "slug": "salmon-arm"
  },
  {
    "name": "Port Alberni",
    "state": "CA-BC",
    "lat": 49.2339,
    "lng": -124.805,
    "pop": 17678,
    "density": 894.6,
    "tz": "America/Vancouver",
    "slug": "port-alberni"
  },
  {
    "name": "Esquimalt",
    "state": "CA-BC",
    "lat": 48.4306,
    "lng": -123.4147,
    "pop": 17655,
    "density": 2494.7,
    "tz": "America/Vancouver",
    "slug": "esquimalt"
  },
  {
    "name": "Deux-Montagnes",
    "state": "CA-QC",
    "lat": 45.5333,
    "lng": -73.8833,
    "pop": 17553,
    "density": 2850.1,
    "tz": "America/Montreal",
    "slug": "deuxmontagnes"
  },
  {
    "name": "Miramichi",
    "state": "CA-NB",
    "lat": 47.0196,
    "lng": -65.5072,
    "pop": 17537,
    "density": 97.7,
    "tz": "America/Moncton",
    "slug": "miramichi"
  },
  {
    "name": "Niagara-on-the-Lake",
    "state": "CA-ON",
    "lat": 43.2553,
    "lng": -79.0717,
    "pop": 17511,
    "density": 131.8,
    "tz": "America/Toronto",
    "slug": "niagaraonthelake"
  },
  {
    "name": "Saint-Lin--Laurentides",
    "state": "CA-QC",
    "lat": 45.85,
    "lng": -73.7667,
    "pop": 17463,
    "density": 147.3,
    "tz": "America/Montreal",
    "slug": "saintlinlaurentides"
  },
  {
    "name": "Beaumont",
    "state": "CA-AB",
    "lat": 53.3572,
    "lng": -113.4147,
    "pop": 17396,
    "density": 1661.1,
    "tz": "America/Edmonton",
    "slug": "beaumont"
  },
  {
    "name": "Middlesex Centre",
    "state": "CA-ON",
    "lat": 43.05,
    "lng": -81.45,
    "pop": 17262,
    "density": 29.4,
    "tz": "America/Toronto",
    "slug": "middlesex-centre"
  },
  {
    "name": "Inverness",
    "state": "CA-NS",
    "lat": 46.2,
    "lng": -61.1,
    "pop": 17235,
    "density": 4.5,
    "tz": "America/Halifax",
    "slug": "inverness"
  },
  {
    "name": "Stony Plain",
    "state": "CA-AB",
    "lat": 53.5264,
    "lng": -114.0069,
    "pop": 17189,
    "density": 481.2,
    "tz": "America/Edmonton",
    "slug": "stony-plain"
  },
  {
    "name": "Petawawa",
    "state": "CA-ON",
    "lat": 45.9,
    "lng": -77.2833,
    "pop": 17187,
    "density": 103.1,
    "tz": "America/Toronto",
    "slug": "petawawa"
  },
  {
    "name": "Pelham",
    "state": "CA-ON",
    "lat": 43.0333,
    "lng": -79.3333,
    "pop": 17110,
    "density": 135.3,
    "tz": "America/Toronto",
    "slug": "pelham"
  },
  {
    "name": "Selwyn",
    "state": "CA-ON",
    "lat": 44.4167,
    "lng": -78.3333,
    "pop": 17060,
    "density": 54,
    "tz": "America/Toronto",
    "slug": "selwyn"
  },
  {
    "name": "Loyalist",
    "state": "CA-ON",
    "lat": 44.25,
    "lng": -76.75,
    "pop": 16971,
    "density": 49.8,
    "tz": "America/Toronto",
    "slug": "loyalist"
  },
  {
    "name": "Midland",
    "state": "CA-ON",
    "lat": 44.75,
    "lng": -79.8833,
    "pop": 16864,
    "density": 477.3,
    "tz": "America/Toronto",
    "slug": "midland"
  },
  {
    "name": "Colwood",
    "state": "CA-BC",
    "lat": 48.4236,
    "lng": -123.4958,
    "pop": 16859,
    "density": 954.2,
    "tz": "America/Vancouver",
    "slug": "colwood"
  },
  {
    "name": "Central Saanich",
    "state": "CA-BC",
    "lat": 48.5142,
    "lng": -123.3839,
    "pop": 16814,
    "density": 406.8,
    "tz": "America/Vancouver",
    "slug": "central-saanich"
  },
  {
    "name": "Sainte-Catherine",
    "state": "CA-QC",
    "lat": 45.4,
    "lng": -73.58,
    "pop": 16762,
    "density": 1764.1,
    "tz": "America/Montreal",
    "slug": "saintecatherine"
  },
  {
    "name": "Port Hope",
    "state": "CA-ON",
    "lat": 43.95,
    "lng": -78.3,
    "pop": 16753,
    "density": 60.1,
    "tz": "America/Toronto",
    "slug": "port-hope"
  },
  {
    "name": "L’Ancienne-Lorette",
    "state": "CA-QC",
    "lat": 46.8,
    "lng": -71.35,
    "pop": 16745,
    "density": 2193.6,
    "tz": "America/Montreal",
    "slug": "lanciennelorette"
  },
  {
    "name": "Saint-Basile-le-Grand",
    "state": "CA-QC",
    "lat": 45.5333,
    "lng": -73.2833,
    "pop": 16736,
    "density": 463.6,
    "tz": "America/Montreal",
    "slug": "saintbasilelegrand"
  },
  {
    "name": "Swift Current",
    "state": "CA-SK",
    "lat": 50.2881,
    "lng": -107.7939,
    "pop": 16604,
    "density": 566.5,
    "tz": "America/Swift_Current",
    "slug": "swift-current"
  },
  {
    "name": "Edmundston",
    "state": "CA-NB",
    "lat": 47.3765,
    "lng": -68.3253,
    "pop": 16580,
    "density": 155.2,
    "tz": "America/Moncton",
    "slug": "edmundston"
  },
  {
    "name": "Russell",
    "state": "CA-ON",
    "lat": 45.2569,
    "lng": -75.3583,
    "pop": 16520,
    "density": 83,
    "tz": "America/Toronto",
    "slug": "russell"
  },
  {
    "name": "North Grenville",
    "state": "CA-ON",
    "lat": 44.9667,
    "lng": -75.65,
    "pop": 16451,
    "density": 46.7,
    "tz": "America/Toronto",
    "slug": "north-grenville"
  },
  {
    "name": "Yorkton",
    "state": "CA-SK",
    "lat": 51.2139,
    "lng": -102.4628,
    "pop": 16343,
    "density": 449.9,
    "tz": "America/Regina",
    "slug": "yorkton"
  },
  {
    "name": "Tracadie",
    "state": "CA-NB",
    "lat": 47.5124,
    "lng": -64.9101,
    "pop": 16114,
    "density": 31.2,
    "tz": "America/Moncton",
    "slug": "tracadie"
  },
  {
    "name": "Bracebridge",
    "state": "CA-ON",
    "lat": 45.0333,
    "lng": -79.3,
    "pop": 16010,
    "density": 25.5,
    "tz": "America/Toronto",
    "slug": "bracebridge"
  },
  {
    "name": "Greater Napanee",
    "state": "CA-ON",
    "lat": 44.25,
    "lng": -76.95,
    "pop": 15892,
    "density": 34.5,
    "tz": "America/Toronto",
    "slug": "greater-napanee"
  },
  {
    "name": "Tillsonburg",
    "state": "CA-ON",
    "lat": 42.8667,
    "lng": -80.7333,
    "pop": 15872,
    "density": 710.8,
    "tz": "America/Toronto",
    "slug": "tillsonburg"
  },
  {
    "name": "Steinbach",
    "state": "CA-MB",
    "lat": 49.5258,
    "lng": -96.6839,
    "pop": 15829,
    "density": 618.6,
    "tz": "America/Winnipeg",
    "slug": "steinbach"
  },
  {
    "name": "Hanover",
    "state": "CA-MB",
    "lat": 49.4433,
    "lng": -96.8492,
    "pop": 15733,
    "density": 21.2,
    "tz": "America/Winnipeg",
    "slug": "hanover"
  },
  {
    "name": "Terrace",
    "state": "CA-BC",
    "lat": 54.5164,
    "lng": -128.5997,
    "pop": 15723,
    "density": 212.7,
    "tz": "America/Vancouver",
    "slug": "terrace"
  },
  {
    "name": "Springfield",
    "state": "CA-MB",
    "lat": 49.9292,
    "lng": -96.6939,
    "pop": 15342,
    "density": 13.9,
    "tz": "America/Winnipeg",
    "slug": "springfield"
  },
  {
    "name": "Gaspé",
    "state": "CA-QC",
    "lat": 48.8333,
    "lng": -64.4833,
    "pop": 15163,
    "density": 13.5,
    "tz": "America/Montreal",
    "slug": "gaspe"
  },
  {
    "name": "Kenora",
    "state": "CA-ON",
    "lat": 49.7667,
    "lng": -94.4833,
    "pop": 15096,
    "density": 71.3,
    "tz": "America/Winnipeg",
    "slug": "kenora"
  },
  {
    "name": "Cold Lake",
    "state": "CA-AB",
    "lat": 54.4642,
    "lng": -110.1825,
    "pop": 14961,
    "density": 249.7,
    "tz": "America/Edmonton",
    "slug": "cold-lake"
  },
  {
    "name": "Summerside",
    "state": "CA-PE",
    "lat": 46.4,
    "lng": -63.7833,
    "pop": 14829,
    "density": 520.5,
    "tz": "America/Halifax",
    "slug": "summerside"
  },
  {
    "name": "Comox",
    "state": "CA-BC",
    "lat": 49.6733,
    "lng": -124.9022,
    "pop": 14828,
    "density": 838.2,
    "tz": "America/Vancouver",
    "slug": "comox"
  },
  {
    "name": "Sylvan Lake",
    "state": "CA-AB",
    "lat": 52.3083,
    "lng": -114.0964,
    "pop": 14816,
    "density": 634.2,
    "tz": "America/Edmonton",
    "slug": "sylvan-lake"
  },
  {
    "name": "Pincourt",
    "state": "CA-QC",
    "lat": 45.3833,
    "lng": -73.9833,
    "pop": 14558,
    "density": 2048.1,
    "tz": "America/Montreal",
    "slug": "pincourt"
  },
  {
    "name": "West Lincoln",
    "state": "CA-ON",
    "lat": 43.0667,
    "lng": -79.5667,
    "pop": 14500,
    "density": 37.4,
    "tz": "America/Toronto",
    "slug": "west-lincoln"
  },
  {
    "name": "Matane",
    "state": "CA-QC",
    "lat": 48.85,
    "lng": -67.5333,
    "pop": 14462,
    "density": 74,
    "tz": "America/Montreal",
    "slug": "matane"
  },
  {
    "name": "Brooks",
    "state": "CA-AB",
    "lat": 50.5642,
    "lng": -111.8989,
    "pop": 14451,
    "density": 777.3,
    "tz": "America/Edmonton",
    "slug": "brooks"
  },
  {
    "name": "Sainte-Anne-des-Plaines",
    "state": "CA-QC",
    "lat": 45.7617,
    "lng": -73.8204,
    "pop": 14421,
    "density": 154.1,
    "tz": "America/Montreal",
    "slug": "sainteannedesplaines"
  },
  {
    "name": "West Nipissing / Nipissing Ouest",
    "state": "CA-ON",
    "lat": 46.3667,
    "lng": -79.9167,
    "pop": 14364,
    "density": 7.2,
    "tz": "America/Toronto",
    "slug": "west-nipissing-nipissing-ouest"
  },
  {
    "name": "Rosemère",
    "state": "CA-QC",
    "lat": 45.6369,
    "lng": -73.8,
    "pop": 14294,
    "density": 1326.9,
    "tz": "America/Montreal",
    "slug": "rosemere"
  },
  {
    "name": "Mistassini",
    "state": "CA-QC",
    "lat": 48.8229,
    "lng": -72.2154,
    "pop": 14250,
    "density": 48.2,
    "tz": "America/Montreal",
    "slug": "mistassini"
  },
  {
    "name": "Grand Falls",
    "state": "CA-NL",
    "lat": 48.9578,
    "lng": -55.6633,
    "pop": 14171,
    "density": 259.2,
    "tz": "America/St_Johns",
    "slug": "grand-falls"
  },
  {
    "name": "Clearview",
    "state": "CA-ON",
    "lat": 44.3981,
    "lng": -80.0742,
    "pop": 14151,
    "density": 25.4,
    "tz": "America/Toronto",
    "slug": "clearview"
  },
  {
    "name": "St. Clair",
    "state": "CA-ON",
    "lat": 42.7833,
    "lng": -82.35,
    "pop": 14086,
    "density": 22.8,
    "tz": "America/Toronto",
    "slug": "st-clair"
  },
  {
    "name": "Canmore",
    "state": "CA-AB",
    "lat": 51.089,
    "lng": -115.359,
    "pop": 13992,
    "density": 201.5,
    "tz": "America/Edmonton",
    "slug": "canmore"
  },
  {
    "name": "North Battleford",
    "state": "CA-SK",
    "lat": 52.7575,
    "lng": -108.2861,
    "pop": 13888,
    "density": 414,
    "tz": "America/Regina",
    "slug": "north-battleford"
  },
  {
    "name": "Pembroke",
    "state": "CA-ON",
    "lat": 45.8167,
    "lng": -77.1,
    "pop": 13882,
    "density": 953.3,
    "tz": "America/Toronto",
    "slug": "pembroke"
  },
  {
    "name": "Mont-Laurier",
    "state": "CA-QC",
    "lat": 46.55,
    "lng": -75.5,
    "pop": 13779,
    "density": 23.3,
    "tz": "America/Montreal",
    "slug": "montlaurier"
  },
  {
    "name": "Strathmore",
    "state": "CA-AB",
    "lat": 51.0378,
    "lng": -113.4003,
    "pop": 13756,
    "density": 502,
    "tz": "America/Edmonton",
    "slug": "strathmore"
  },
  {
    "name": "Saugeen Shores",
    "state": "CA-ON",
    "lat": 44.4333,
    "lng": -81.3667,
    "pop": 13715,
    "density": 80.2,
    "tz": "America/Toronto",
    "slug": "saugeen-shores"
  },
  {
    "name": "Thompson",
    "state": "CA-MB",
    "lat": 55.7433,
    "lng": -97.8553,
    "pop": 13678,
    "density": 657.91,
    "tz": "America/Winnipeg",
    "slug": "thompson"
  },
  {
    "name": "Lavaltrie",
    "state": "CA-QC",
    "lat": 45.8833,
    "lng": -73.2833,
    "pop": 13657,
    "density": 199.7,
    "tz": "America/Montreal",
    "slug": "lavaltrie"
  },
  {
    "name": "High River",
    "state": "CA-AB",
    "lat": 50.5808,
    "lng": -113.8744,
    "pop": 13584,
    "density": 635.1,
    "tz": "America/Edmonton",
    "slug": "high-river"
  },
  {
    "name": "Severn",
    "state": "CA-ON",
    "lat": 44.75,
    "lng": -79.5167,
    "pop": 13477,
    "density": 24.5,
    "tz": "America/Toronto",
    "slug": "severn"
  },
  {
    "name": "Sainte-Sophie",
    "state": "CA-QC",
    "lat": 45.82,
    "lng": -73.9,
    "pop": 13375,
    "density": 120.2,
    "tz": "America/Montreal",
    "slug": "saintesophie"
  },
  {
    "name": "Saint-Charles-Borromée",
    "state": "CA-QC",
    "lat": 46.05,
    "lng": -73.4667,
    "pop": 13321,
    "density": 715,
    "tz": "America/Montreal",
    "slug": "saintcharlesborromee"
  },
  {
    "name": "Portage La Prairie",
    "state": "CA-MB",
    "lat": 49.9728,
    "lng": -98.2919,
    "pop": 13304,
    "density": 539.1,
    "tz": "America/Winnipeg",
    "slug": "portage-la-prairie"
  },
  {
    "name": "Thames Centre",
    "state": "CA-ON",
    "lat": 43.03,
    "lng": -81.08,
    "pop": 13191,
    "density": 30.4,
    "tz": "America/Toronto",
    "slug": "thames-centre"
  },
  {
    "name": "Mississippi Mills",
    "state": "CA-ON",
    "lat": 45.2167,
    "lng": -76.2,
    "pop": 13163,
    "density": 25.3,
    "tz": "America/Toronto",
    "slug": "mississippi-mills"
  },
  {
    "name": "Powell River",
    "state": "CA-BC",
    "lat": 49.8353,
    "lng": -124.5247,
    "pop": 13157,
    "density": 444.1,
    "tz": "America/Vancouver",
    "slug": "powell-river"
  },
  {
    "name": "South Glengarry",
    "state": "CA-ON",
    "lat": 45.2,
    "lng": -74.5833,
    "pop": 13150,
    "density": 21.7,
    "tz": "America/Toronto",
    "slug": "south-glengarry"
  },
  {
    "name": "North Perth",
    "state": "CA-ON",
    "lat": 43.73,
    "lng": -80.95,
    "pop": 13130,
    "density": 26.6,
    "tz": "America/Toronto",
    "slug": "north-perth"
  },
  {
    "name": "Mercier",
    "state": "CA-QC",
    "lat": 45.32,
    "lng": -73.75,
    "pop": 13115,
    "density": 284.6,
    "tz": "America/Montreal",
    "slug": "mercier"
  },
  {
    "name": "South Stormont",
    "state": "CA-ON",
    "lat": 45.0833,
    "lng": -74.9667,
    "pop": 13110,
    "density": 28.2,
    "tz": "America/Toronto",
    "slug": "south-stormont"
  },
  {
    "name": "Saint-Colomban",
    "state": "CA-QC",
    "lat": 45.73,
    "lng": -74.13,
    "pop": 13080,
    "density": 139.8,
    "tz": "America/Montreal",
    "slug": "saintcolomban"
  },
  {
    "name": "Lacombe",
    "state": "CA-AB",
    "lat": 52.4683,
    "lng": -113.7369,
    "pop": 13057,
    "density": 627.5,
    "tz": "America/Edmonton",
    "slug": "lacombe"
  },
  {
    "name": "Sooke",
    "state": "CA-BC",
    "lat": 48.3761,
    "lng": -123.7378,
    "pop": 13001,
    "density": 229.6,
    "tz": "America/Vancouver",
    "slug": "sooke"
  },
  {
    "name": "Dawson Creek",
    "state": "CA-BC",
    "lat": 55.7606,
    "lng": -120.2356,
    "pop": 12978,
    "density": 475.4,
    "tz": "America/Dawson_Creek",
    "slug": "dawson-creek"
  },
  {
    "name": "Lake Country",
    "state": "CA-BC",
    "lat": 50.0833,
    "lng": -119.4142,
    "pop": 12922,
    "density": 105.8,
    "tz": "America/Vancouver",
    "slug": "lake-country"
  },
  {
    "name": "Trent Hills",
    "state": "CA-ON",
    "lat": 44.3142,
    "lng": -77.8514,
    "pop": 12900,
    "density": 25.2,
    "tz": "America/Toronto",
    "slug": "trent-hills"
  },
  {
    "name": "Sainte-Marie",
    "state": "CA-QC",
    "lat": 46.45,
    "lng": -71.0333,
    "pop": 12889,
    "density": 120.3,
    "tz": "America/Montreal",
    "slug": "saintemarie"
  },
  {
    "name": "Guelph/Eramosa",
    "state": "CA-ON",
    "lat": 43.63,
    "lng": -80.22,
    "pop": 12854,
    "density": 44.1,
    "tz": "America/Toronto",
    "slug": "guelpheramosa"
  },
  {
    "name": "Truro",
    "state": "CA-NS",
    "lat": 45.3647,
    "lng": -63.28,
    "pop": 12826,
    "density": 355.5,
    "tz": "America/Halifax",
    "slug": "truro"
  },
  {
    "name": "Amos",
    "state": "CA-QC",
    "lat": 48.5667,
    "lng": -78.1167,
    "pop": 12823,
    "density": 29.8,
    "tz": "America/Montreal",
    "slug": "amos"
  },
  {
    "name": "The Nation / La Nation",
    "state": "CA-ON",
    "lat": 45.35,
    "lng": -75.0333,
    "pop": 12808,
    "density": 19.5,
    "tz": "America/Toronto",
    "slug": "the-nation-la-nation"
  },
  {
    "name": "Ingersoll",
    "state": "CA-ON",
    "lat": 43.0392,
    "lng": -80.8836,
    "pop": 12757,
    "density": 1000.7,
    "tz": "America/Toronto",
    "slug": "ingersoll"
  },
  {
    "name": "Winkler",
    "state": "CA-MB",
    "lat": 49.1817,
    "lng": -97.9397,
    "pop": 12660,
    "density": 740.5,
    "tz": "America/Winnipeg",
    "slug": "winkler"
  },
  {
    "name": "Wetaskiwin",
    "state": "CA-AB",
    "lat": 52.9694,
    "lng": -113.3769,
    "pop": 12655,
    "density": 691.1,
    "tz": "America/Edmonton",
    "slug": "wetaskiwin"
  },
  {
    "name": "Central Elgin",
    "state": "CA-ON",
    "lat": 42.7667,
    "lng": -81.1,
    "pop": 12607,
    "density": 45,
    "tz": "America/Toronto",
    "slug": "central-elgin"
  },
  {
    "name": "Lachute",
    "state": "CA-QC",
    "lat": 45.65,
    "lng": -74.3333,
    "pop": 12551,
    "density": 114.9,
    "tz": "America/Montreal",
    "slug": "lachute"
  },
  {
    "name": "West Grey",
    "state": "CA-ON",
    "lat": 44.1833,
    "lng": -80.8167,
    "pop": 12518,
    "density": 14.3,
    "tz": "America/Toronto",
    "slug": "west-grey"
  },
  {
    "name": "Parksville",
    "state": "CA-BC",
    "lat": 49.315,
    "lng": -124.312,
    "pop": 12514,
    "density": 854.6,
    "tz": "America/Vancouver",
    "slug": "parksville"
  },
  {
    "name": "Cowansville",
    "state": "CA-QC",
    "lat": 45.2,
    "lng": -72.75,
    "pop": 12489,
    "density": 271,
    "tz": "America/Montreal",
    "slug": "cowansville"
  },
  {
    "name": "Bécancour",
    "state": "CA-QC",
    "lat": 46.3333,
    "lng": -72.4333,
    "pop": 12438,
    "density": 28.2,
    "tz": "America/Montreal",
    "slug": "becancour"
  },
  {
    "name": "Gravenhurst",
    "state": "CA-ON",
    "lat": 44.9167,
    "lng": -79.3667,
    "pop": 12311,
    "density": 23.8,
    "tz": "America/Toronto",
    "slug": "gravenhurst"
  },
  {
    "name": "Perth East",
    "state": "CA-ON",
    "lat": 43.47,
    "lng": -80.95,
    "pop": 12261,
    "density": 17.2,
    "tz": "America/Toronto",
    "slug": "perth-east"
  },
  {
    "name": "Prince Rupert",
    "state": "CA-BC",
    "lat": 54.3122,
    "lng": -130.3271,
    "pop": 12220,
    "density": 227.7,
    "tz": "America/Vancouver",
    "slug": "prince-rupert"
  },
  {
    "name": "Prévost",
    "state": "CA-QC",
    "lat": 45.87,
    "lng": -74.08,
    "pop": 12171,
    "density": 347.2,
    "tz": "America/Montreal",
    "slug": "prevost"
  },
  {
    "name": "Sainte-Adèle",
    "state": "CA-QC",
    "lat": 45.95,
    "lng": -74.13,
    "pop": 12137,
    "density": 100.4,
    "tz": "America/Montreal",
    "slug": "sainteadele"
  },
  {
    "name": "Kentville",
    "state": "CA-NS",
    "lat": 45.0775,
    "lng": -64.4958,
    "pop": 12088,
    "density": 363.3,
    "tz": "America/Halifax",
    "slug": "kentville"
  },
  {
    "name": "Beauharnois",
    "state": "CA-QC",
    "lat": 45.32,
    "lng": -73.87,
    "pop": 12011,
    "density": 173.9,
    "tz": "America/Montreal",
    "slug": "beauharnois"
  },
  {
    "name": "Les Îles-de-la-Madeleine",
    "state": "CA-QC",
    "lat": 47.3833,
    "lng": -61.8667,
    "pop": 12010,
    "density": 69.5,
    "tz": "America/Halifax",
    "slug": "les-ilesdelamadeleine"
  },
  {
    "name": "Wellington North",
    "state": "CA-ON",
    "lat": 43.9,
    "lng": -80.57,
    "pop": 11914,
    "density": 22.6,
    "tz": "America/Toronto",
    "slug": "wellington-north"
  },
  {
    "name": "St. Andrews",
    "state": "CA-MB",
    "lat": 50.27,
    "lng": -96.9747,
    "pop": 11913,
    "density": 15.8,
    "tz": "America/Winnipeg",
    "slug": "st-andrews"
  },
  {
    "name": "Carleton Place",
    "state": "CA-ON",
    "lat": 45.1333,
    "lng": -76.1333,
    "pop": 11901,
    "density": 1176.2,
    "tz": "America/Toronto",
    "slug": "carleton-place"
  },
  {
    "name": "Whistler",
    "state": "CA-BC",
    "lat": 50.1208,
    "lng": -122.9544,
    "pop": 11854,
    "density": 49.3,
    "tz": "America/Vancouver",
    "slug": "whistler"
  },
  {
    "name": "Brighton",
    "state": "CA-ON",
    "lat": 44.1222,
    "lng": -77.7642,
    "pop": 11844,
    "density": 43.2,
    "tz": "America/Toronto",
    "slug": "brighton"
  },
  {
    "name": "Tiny",
    "state": "CA-ON",
    "lat": 44.6833,
    "lng": -79.95,
    "pop": 11787,
    "density": 35,
    "tz": "America/Toronto",
    "slug": "tiny"
  },
  {
    "name": "Gander",
    "state": "CA-NL",
    "lat": 48.9569,
    "lng": -54.6089,
    "pop": 11688,
    "density": 112.1,
    "tz": "America/St_Johns",
    "slug": "gander"
  },
  {
    "name": "Sidney",
    "state": "CA-BC",
    "lat": 48.6506,
    "lng": -123.3986,
    "pop": 11672,
    "density": 2290.7,
    "tz": "America/Vancouver",
    "slug": "sidney"
  },
  {
    "name": "Rothesay",
    "state": "CA-NB",
    "lat": 45.3831,
    "lng": -65.9969,
    "pop": 11659,
    "density": 335.8,
    "tz": "America/Moncton",
    "slug": "rothesay"
  },
  {
    "name": "Brock",
    "state": "CA-ON",
    "lat": 44.3167,
    "lng": -79.0833,
    "pop": 11642,
    "density": 27.5,
    "tz": "America/Toronto",
    "slug": "brock"
  },
  {
    "name": "Summerland",
    "state": "CA-BC",
    "lat": 49.6006,
    "lng": -119.6778,
    "pop": 11615,
    "density": 156.8,
    "tz": "America/Vancouver",
    "slug": "summerland"
  },
  {
    "name": "Val-des-Monts",
    "state": "CA-QC",
    "lat": 45.65,
    "lng": -75.6667,
    "pop": 11582,
    "density": 26.2,
    "tz": "America/Montreal",
    "slug": "valdesmonts"
  },
  {
    "name": "Taché",
    "state": "CA-MB",
    "lat": 49.7081,
    "lng": -96.6736,
    "pop": 11568,
    "density": 19.9,
    "tz": "America/Winnipeg",
    "slug": "tache"
  },
  {
    "name": "Montmagny",
    "state": "CA-QC",
    "lat": 46.9833,
    "lng": -70.55,
    "pop": 11491,
    "density": 91.1,
    "tz": "America/Montreal",
    "slug": "montmagny"
  },
  {
    "name": "Erin",
    "state": "CA-ON",
    "lat": 43.7667,
    "lng": -80.0667,
    "pop": 11439,
    "density": 38.4,
    "tz": "America/Toronto",
    "slug": "erin"
  },
  {
    "name": "Kincardine",
    "state": "CA-ON",
    "lat": 44.1667,
    "lng": -81.6333,
    "pop": 11389,
    "density": 21.2,
    "tz": "America/Toronto",
    "slug": "kincardine"
  },
  {
    "name": "North Dundas",
    "state": "CA-ON",
    "lat": 45.0833,
    "lng": -75.35,
    "pop": 11278,
    "density": 22.4,
    "tz": "America/Toronto",
    "slug": "north-dundas"
  },
  {
    "name": "Wellesley",
    "state": "CA-ON",
    "lat": 43.55,
    "lng": -80.7167,
    "pop": 11260,
    "density": 40.5,
    "tz": "America/Toronto",
    "slug": "wellesley"
  },
  {
    "name": "Estevan",
    "state": "CA-SK",
    "lat": 49.1392,
    "lng": -102.9861,
    "pop": 11258,
    "density": 586.6,
    "tz": "America/Regina",
    "slug": "estevan"
  },
  {
    "name": "North Saanich",
    "state": "CA-BC",
    "lat": 48.6142,
    "lng": -123.42,
    "pop": 11249,
    "density": 301.8,
    "tz": "America/Vancouver",
    "slug": "north-saanich"
  },
  {
    "name": "Warman",
    "state": "CA-SK",
    "lat": 52.3219,
    "lng": -106.5842,
    "pop": 11020,
    "density": 844.6,
    "tz": "America/Regina",
    "slug": "warman"
  },
  {
    "name": "La Tuque",
    "state": "CA-QC",
    "lat": 48.0652,
    "lng": -74.0528,
    "pop": 11001,
    "density": 0.4,
    "tz": "America/Montreal",
    "slug": "la-tuque"
  },
  {
    "name": "Norwich",
    "state": "CA-ON",
    "lat": 42.9833,
    "lng": -80.6,
    "pop": 11001,
    "density": 25.5,
    "tz": "America/Toronto",
    "slug": "norwich"
  },
  {
    "name": "Meaford",
    "state": "CA-ON",
    "lat": 44.58,
    "lng": -80.73,
    "pop": 10991,
    "density": 18.7,
    "tz": "America/Toronto",
    "slug": "meaford"
  },
  {
    "name": "Adjala-Tosorontio",
    "state": "CA-ON",
    "lat": 44.1333,
    "lng": -79.9333,
    "pop": 10975,
    "density": 29.5,
    "tz": "America/Toronto",
    "slug": "adjalatosorontio"
  },
  {
    "name": "Hamilton Township",
    "state": "CA-ON",
    "lat": 44.054,
    "lng": -78.2164,
    "pop": 10942,
    "density": 42.7,
    "tz": "America/Toronto",
    "slug": "hamilton-township"
  },
  {
    "name": "St. Clements",
    "state": "CA-MB",
    "lat": 50.2689,
    "lng": -96.6742,
    "pop": 10876,
    "density": 14.9,
    "tz": "America/Winnipeg",
    "slug": "st-clements"
  },
  {
    "name": "Saint-Amable",
    "state": "CA-QC",
    "lat": 45.65,
    "lng": -73.3,
    "pop": 10870,
    "density": 296.3,
    "tz": "America/Montreal",
    "slug": "saintamable"
  },
  {
    "name": "Weyburn",
    "state": "CA-SK",
    "lat": 49.6611,
    "lng": -103.8525,
    "pop": 10870,
    "density": 688.8,
    "tz": "America/Regina",
    "slug": "weyburn"
  },
  {
    "name": "South Dundas",
    "state": "CA-ON",
    "lat": 44.9167,
    "lng": -75.2667,
    "pop": 10833,
    "density": 20.8,
    "tz": "America/Toronto",
    "slug": "south-dundas"
  },
  {
    "name": "L’Île-Perrot",
    "state": "CA-QC",
    "lat": 45.3833,
    "lng": -73.95,
    "pop": 10756,
    "density": 1955.6,
    "tz": "America/Montreal",
    "slug": "lileperrot"
  },
  {
    "name": "Notre-Dame-de-l'Île-Perrot",
    "state": "CA-QC",
    "lat": 45.3667,
    "lng": -73.9333,
    "pop": 10756,
    "density": 386.9,
    "tz": "America/Montreal",
    "slug": "notredamedelileperrot"
  },
  {
    "name": "Williams Lake",
    "state": "CA-BC",
    "lat": 52.1294,
    "lng": -122.1383,
    "pop": 10753,
    "density": 327,
    "tz": "America/Vancouver",
    "slug": "williams-lake"
  },
  {
    "name": "Elliot Lake",
    "state": "CA-ON",
    "lat": 46.3833,
    "lng": -82.65,
    "pop": 10741,
    "density": 15.9,
    "tz": "America/Toronto",
    "slug": "elliot-lake"
  },
  {
    "name": "Cantley",
    "state": "CA-QC",
    "lat": 45.5667,
    "lng": -75.7833,
    "pop": 10699,
    "density": 83.4,
    "tz": "America/Montreal",
    "slug": "cantley"
  },
  {
    "name": "Nelson",
    "state": "CA-BC",
    "lat": 49.5,
    "lng": -117.2833,
    "pop": 10664,
    "density": 1552.3,
    "tz": "America/Vancouver",
    "slug": "nelson"
  },
  {
    "name": "Lambton Shores",
    "state": "CA-ON",
    "lat": 43.1833,
    "lng": -81.9,
    "pop": 10631,
    "density": 32.1,
    "tz": "America/Toronto",
    "slug": "lambton-shores"
  },
  {
    "name": "Mapleton",
    "state": "CA-ON",
    "lat": 43.7358,
    "lng": -80.6681,
    "pop": 10527,
    "density": 19.7,
    "tz": "America/Toronto",
    "slug": "mapleton"
  },
  {
    "name": "Georgian Bluffs",
    "state": "CA-ON",
    "lat": 44.65,
    "lng": -81.0333,
    "pop": 10479,
    "density": 17.3,
    "tz": "America/Toronto",
    "slug": "georgian-bluffs"
  },
  {
    "name": "Rawdon",
    "state": "CA-QC",
    "lat": 46.05,
    "lng": -73.7167,
    "pop": 10416,
    "density": 55.7,
    "tz": "America/Montreal",
    "slug": "rawdon"
  },
  {
    "name": "Campbellton",
    "state": "CA-NB",
    "lat": 48.005,
    "lng": -66.6731,
    "pop": 10411,
    "density": 370.5,
    "tz": "America/Moncton",
    "slug": "campbellton"
  },
  {
    "name": "View Royal",
    "state": "CA-BC",
    "lat": 48.4517,
    "lng": -123.4339,
    "pop": 10408,
    "density": 724.8,
    "tz": "America/Vancouver",
    "slug": "view-royal"
  },
  {
    "name": "Coldstream",
    "state": "CA-BC",
    "lat": 50.22,
    "lng": -119.2481,
    "pop": 10314,
    "density": 155.6,
    "tz": "America/Vancouver",
    "slug": "coldstream"
  },
  {
    "name": "Chester",
    "state": "CA-NS",
    "lat": 44.65,
    "lng": -64.3,
    "pop": 10310,
    "density": 9.2,
    "tz": "America/Halifax",
    "slug": "chester"
  },
  {
    "name": "Queens",
    "state": "CA-NS",
    "lat": 44.0333,
    "lng": -64.7167,
    "pop": 10307,
    "density": 4.3,
    "tz": "America/Halifax",
    "slug": "queens"
  },
  {
    "name": "Selkirk",
    "state": "CA-MB",
    "lat": 50.1436,
    "lng": -96.8839,
    "pop": 10278,
    "density": 413.4,
    "tz": "America/Winnipeg",
    "slug": "selkirk"
  },
  {
    "name": "Saint-Félicien",
    "state": "CA-QC",
    "lat": 48.65,
    "lng": -72.45,
    "pop": 10278,
    "density": 28.3,
    "tz": "America/Montreal",
    "slug": "saintfelicien"
  },
  {
    "name": "Hawkesbury",
    "state": "CA-ON",
    "lat": 45.6,
    "lng": -74.6,
    "pop": 10263,
    "density": 1067.3,
    "tz": "America/Montreal",
    "slug": "hawkesbury"
  },
  {
    "name": "Roberval",
    "state": "CA-QC",
    "lat": 48.52,
    "lng": -72.23,
    "pop": 10227,
    "density": 66.8,
    "tz": "America/Montreal",
    "slug": "roberval"
  },
  {
    "name": "Sainte-Agathe-des-Monts",
    "state": "CA-QC",
    "lat": 46.05,
    "lng": -74.28,
    "pop": 10223,
    "density": 78.6,
    "tz": "America/Montreal",
    "slug": "sainteagathedesmonts"
  },
  {
    "name": "North Dumfries",
    "state": "CA-ON",
    "lat": 43.32,
    "lng": -80.38,
    "pop": 10215,
    "density": 54.5,
    "tz": "America/Toronto",
    "slug": "north-dumfries"
  },
  {
    "name": "Rideau Lakes",
    "state": "CA-ON",
    "lat": 44.6667,
    "lng": -76.2167,
    "pop": 10207,
    "density": 14,
    "tz": "America/Toronto",
    "slug": "rideau-lakes"
  },
  {
    "name": "Sechelt",
    "state": "CA-BC",
    "lat": 49.4742,
    "lng": -123.7542,
    "pop": 10200,
    "density": 212.9,
    "tz": "America/Vancouver",
    "slug": "sechelt"
  },
  {
    "name": "North Glengarry",
    "state": "CA-ON",
    "lat": 45.3333,
    "lng": -74.7333,
    "pop": 10109,
    "density": 15.7,
    "tz": "America/Toronto",
    "slug": "north-glengarry"
  },
  {
    "name": "South Huron",
    "state": "CA-ON",
    "lat": 43.32,
    "lng": -81.5,
    "pop": 10096,
    "density": 23.4,
    "tz": "America/Toronto",
    "slug": "south-huron"
  },
  {
    "name": "Marieville",
    "state": "CA-QC",
    "lat": 45.4333,
    "lng": -73.1667,
    "pop": 10094,
    "density": 160.8,
    "tz": "America/Montreal",
    "slug": "marieville"
  },
  {
    "name": "Tay",
    "state": "CA-ON",
    "lat": 44.7167,
    "lng": -79.7667,
    "pop": 10033,
    "density": 72.1,
    "tz": "America/Toronto",
    "slug": "tay"
  }
]
